[
  { "label": "Paris — Champs-Élysées",        "lat": 48.8698,  "lng": 2.3076,  "difficulty": 2 },
  { "label": "London — Trafalgar Square",     "lat": 51.5079,  "lng": -0.1283, "difficulty": 2 },
  { "label": "Tokyo — Shibuya Crossing",      "lat": 35.6595,  "lng": 139.7004,"difficulty": 2 },
  { "label": "New York — Times Square",       "lat": 40.7580,  "lng": -73.9855,"difficulty": 1 },
  { "label": "Sydney — Opera House",          "lat": -33.8568, "lng": 151.2153,"difficulty": 2 },
  { "label": "Rio — Copacabana Beach",        "lat": -22.9711, "lng": -43.1822,"difficulty": 2 },
  { "label": "São Paulo — Avenida Paulista",  "lat": -23.5613, "lng": -46.6562,"difficulty": 2 },
  { "label": "Mexico City — Zócalo",          "lat": 19.4326,  "lng": -99.1332,"difficulty": 2 },
  { "label": "Buenos Aires — Obelisco",       "lat": -34.6037, "lng": -58.3816,"difficulty": 3 },
  { "label": "Cape Town — Long Street",       "lat": -33.9249, "lng": 18.4148, "difficulty": 3 },
  { "label": "Cairo — Tahrir Square",         "lat": 30.0444,  "lng": 31.2357, "difficulty": 3 },
  { "label": "Istanbul — Sultanahmet",        "lat": 41.0082,  "lng": 28.9784, "difficulty": 2 },
  { "label": "Moscow — Red Square",           "lat": 55.7539,  "lng": 37.6208, "difficulty": 2 },
  { "label": "Berlin — Brandenburg Gate",     "lat": 52.5163,  "lng": 13.3777, "difficulty": 2 },
  { "label": "Amsterdam — Dam Square",        "lat": 52.3729,  "lng": 4.8932,  "difficulty": 3 },
  { "label": "Rome — Colosseum",              "lat": 41.8902,  "lng": 12.4924, "difficulty": 1 },
  { "label": "Barcelona — La Rambla",         "lat": 41.3811,  "lng": 2.1733,  "difficulty": 2 },
  { "label": "Bangkok — Khao San Road",       "lat": 13.7589,  "lng": 100.4977,"difficulty": 3 },
  { "label": "Singapore — Marina Bay",        "lat": 1.2829,   "lng": 103.8594,"difficulty": 2 },
  { "label": "Mumbai — Gateway of India",     "lat": 18.9220,  "lng": 72.8347, "difficulty": 3 },
  { "label": "Delhi — Connaught Place",       "lat": 28.6328,  "lng": 77.2197, "difficulty": 3 },
  { "label": "Seoul — Gangnam",               "lat": 37.4979,  "lng": 127.0276,"difficulty": 3 },
  { "label": "Hong Kong — Central",           "lat": 22.2819,  "lng": 114.1582,"difficulty": 3 },
  { "label": "Toronto — Yonge–Dundas",        "lat": 43.6562,  "lng": -79.3804,"difficulty": 3 },
  { "label": "Reykjavík — Hallgrímskirkja",   "lat": 64.1414,  "lng": -21.9265,"difficulty": 4 },
  { "label": "Lisbon — Praça do Comércio",    "lat": 38.7079,  "lng": -9.1366, "difficulty": 3 },
  { "label": "Dubai — Burj Khalifa",          "lat": 25.1972,  "lng": 55.2744, "difficulty": 2 },
  { "label": "Vienna — Stephansplatz",        "lat": 48.2086,  "lng": 16.3725, "difficulty": 3 },
  { "label": "Prague — Old Town Square",      "lat": 50.0875,  "lng": 14.4214, "difficulty": 3 },
  { "label": "Stockholm — Gamla Stan",        "lat": 59.3251,  "lng": 18.0710, "difficulty": 4 }
]
